{
"type": "FeatureCollection",
"name": "kuliner",
"crs": { "type": "name", "properties": { "name": "urn:ogc:def:crs:OGC:1.3:CRS84" } },
"features": [
{ "type": "Feature", "properties": { "Name": "Dawet Ayu Mbah Munarjo", "Menu_Utama": "Dawet Ayu, Bakso", "Harga_Maka": "Rp. 12000", "Harga_Minu": "Rp. 7000", "POINT_X": 109.6997091, "POINT_Y": -7.3953509, "POINT_Z": 0.0, "Foto": "Dawet Mbah Munarjo.jpg" }, "geometry": { "type": "Point", "coordinates": [ 109.6997091, -7.3953509, 0.0 ] } },
{ "type": "Feature", "properties": { "Name": "Oemah Tahu Banjarnegara", "Menu_Utama": "Olahan Tahu, Olahan Seafood, Olahan Ayam, Olahan Ikan, Olahan Pepes, Sego Liwet", "Harga_Maka": "Rp. 5000 - 90000", "Harga_Minu": "Rp. 3500 - 20000", "POINT_X": 109.8175881, "POINT_Y": -7.4168661, "POINT_Z": 0.0, "Foto": "Oemah Tahu 2.jpg" }, "geometry": { "type": "Point", "coordinates": [ 109.8175881, -7.4168661, 0.0 ] } },
{ "type": "Feature", "properties": { "Name": "Saung Bu Mansur", "Menu_Utama": "Olahan Ayam, Olahan Bebek, Olahan Ikan, Cemilan", "Harga_Maka": "Rp. 6000 - 120000", "Harga_Minu": "Rp. 5000 - 15000", "POINT_X": 109.7020169, "POINT_Y": -7.3907558, "POINT_Z": 0.0, "Foto": "Saung Bu Mansur.jpg" }, "geometry": { "type": "Point", "coordinates": [ 109.7020169, -7.3907558, 0.0 ] } },
{ "type": "Feature", "properties": { "Name": "Ethnic Oriental Resto", "Menu_Utama": "Olahan Ayam, Olahan Bebek, Olahan Ikan, Olahan Seafood, Sate, Sayuran, Olahan Mie dan Nasi Goreng", "Harga_Maka": "Rp. 5000 - 37000", "Harga_Minu": "Rp. 5000 - 22000", "POINT_X": 109.7022875, "POINT_Y": -7.3968686, "POINT_Z": 0.0, "Foto": "Ethnic.jpg" }, "geometry": { "type": "Point", "coordinates": [ 109.7022875, -7.3968686, 0.0 ] } },
{ "type": "Feature", "properties": { "Name": "Jujugan Serayu", "Menu_Utama": "Olahan Ayam, Olahan Ikan, Sayuran, Mendoan", "Harga_Maka": "7500 - 40000", "Harga_Minu": "Rp. 3000 - 7500", "POINT_X": 109.8169546, "POINT_Y": -7.4160768, "POINT_Z": 0.0, "Foto": "Jujugan Serayu.jpg" }, "geometry": { "type": "Point", "coordinates": [ 109.8169546, -7.4160768, 0.0 ] } },
{ "type": "Feature", "properties": { "Name": "Pondok Gurih Resto", "Menu_Utama": "Olahan Ikan, Olahan Kambing, Soto, Sayuran, Nasi Goreng, Sop", "Harga_Maka": "Rp. 6000 - 30000", "Harga_Minu": "Rp. 5000 - 17000", "POINT_X": 109.5305901, "POINT_Y": -7.4505881, "POINT_Z": 0.0, "Foto": "Pondok Gurih.jpg" }, "geometry": { "type": "Point", "coordinates": [ 109.5305901, -7.4505881, 0.0 ] } },
{ "type": "Feature", "properties": { "Name": "Warung Kandang Kebo", "Menu_Utama": "Olahan Ayam, Telur Goreng, Sayur Lodeh, Sayur Asem, Srundeng, Ikan Kali", "Harga_Maka": "Rp. 4000 - 28000", "Harga_Minu": "Rp. 2000 - 12000", "POINT_X": 109.7448878, "POINT_Y": -7.3865894, "POINT_Z": 0.0, "Foto": "Kandang Kebo.jpg" }, "geometry": { "type": "Point", "coordinates": [ 109.7448878, -7.3865894, 0.0 ] } },
{ "type": "Feature", "properties": { "Name": "Dapoer Central", "Menu_Utama": "Olahan Ayam, Olahan Sapi, Olahan Seafood, Nasi Goreng, Olahan Ikan, Western Food, Sushi", "Harga_Maka": "Rp. 10000- 63000", "Harga_Minu": "Rp. 5000 - 33000", "POINT_X": 109.6956997, "POINT_Y": -7.398132, "POINT_Z": 0.0, "Foto": "Dapoer Central.jpg" }, "geometry": { "type": "Point", "coordinates": [ 109.6956997, -7.398132, 0.0 ] } }
]
}
